{"timestamp":"2025-09-28T22:00:00.405597Z","sensor_id":"sim_rf_01","modality":"rf","location":{"lat":35.27172543058273,"lon":-78.63800565923617,"alt":145.47575179693746},"orientation":{"yaw":207.8659594071338,"pitch":3.197562658577212,"roll":-3.209284973641041},"data":{"type":"frequency","value":921.805,"units":"MHz","confidence":0.62},"pid":"rf_signal_simulated_1","tags":["simulated","rf","test"],"note":"Simulated RF metadata packet","source_format":"simulated_json_v1"}
{"timestamp":"2025-09-28T22:00:01.407920Z","sensor_id":"sim_rf_01","modality":"rf","location":{"lat":35.27170373344781,"lon":-78.63774208884911,"alt":145.17276043842583},"orientation":{"yaw":56.13431491775464,"pitch":4.322892162006548,"roll":-0.002851586861183364},"data":{"type":"frequency","value":925.925,"units":"MHz","confidence":0.95},"pid":"rf_signal_simulated_1","tags":["simulated","rf","test"],"note":"Simulated RF metadata packet","source_format":"simulated_json_v1"}
{"timestamp":"2025-09-28T22:00:02.408790Z","sensor_id":"sim_rf_01","modality":"rf","location":{"lat":35.271032396824424,"lon":-78.6378978622775,"alt":146.7150912858459},"orientation":{"yaw":2.3939377059441025,"pitch":4.711305687177106,"roll":1.3886599817873444},"data":{"type":"frequency","value":927.299,"units":"MHz","confidence":0.9},"pid":"rf_signal_simulated_1","tags":["simulated","rf","test"],"note":"Simulated RF metadata packet","source_format":"simulated_json_v1"}
{"timestamp":"2025-09-28T22:00:03.409493Z","sensor_id":"sim_rf_01","modality":"rf","location":{"lat":35.27150551902304,"lon":-78.63790182715621,"alt":145.75156181047808},"orientation":{"yaw":143.6845506857463,"pitch":-1.313085963586989,"roll":-2.9762795646167763},"data":{"type":"frequency","value":910.211,"units":"MHz","confidence":0.84},"pid":"rf_signal_simulated_1","tags":["simulated","rf","test"],"note":"Simulated RF metadata packet","source_format":"simulated_json_v1"}
{"timestamp":"2025-09-28T22:00:04.410909Z","sensor_id":"sim_rf_01","modality":"rf","location":{"lat":35.27122229789361,"lon":-78.6372773308363,"alt":144.31717534513822},"orientation":{"yaw":203.03138973841737,"pitch":5.723202178477626,"roll":-1.0305114661566117},"data":{"type":"frequency","value":925.797,"units":"MHz","confidence":0.71},"pid":"rf_signal_simulated_1","tags":["simulated","rf","test"],"note":"Simulated RF metadata packet","source_format":"simulated_json_v1"}
{"timestamp":"2025-09-28T22:00:05.412416Z","sensor_id":"sim_rf_01","modality":"rf","location":{"lat":35.27162480572084,"lon":-78.6380528309699,"alt":146.64801872845388},"orientation":{"yaw":25.12098959632778,"pitch":-4.16861865169345,"roll":-2.1942159364842686},"data":{"type":"frequency","value":910.287,"units":"MHz","confidence":0.67},"pid":"rf_signal_simulated_1","tags":["simulated","rf","test"],"note":"Simulated RF metadata packet","source_format":"simulated_json_v1"}
{"timestamp":"2025-09-28T22:00:06.413342Z","sensor_id":"sim_rf_01","modality":"rf","location":{"lat":35.27099619459645,"lon":-78.63754318140447,"alt":143.48110468297722},"orientation":{"yaw":137.20517056144737,"pitch":0.38478485149218855,"roll":-4.460686673251596},"data":{"type":"frequency","value":908.299,"units":"MHz","confidence":0.96},"pid":"rf_signal_simulated_1","tags":["simulated","rf","test"],"note":"Simulated RF metadata packet","source_format":"simulated_json_v1"}
{"timestamp":"2025-09-28T22:00:07.414031Z","sensor_id":"sim_rf_01","modality":"rf","location":{"lat":35.270940376384495,"lon":-78.63757378731911,"alt":143.99940803090894},"orientation":{"yaw":9.442532397287323,"pitch":-3.561439271498042,"roll":1.616983221673399},"data":{"type":"frequency","value":927.1,"units":"MHz","confidence":0.98},"pid":"rf_signal_simulated_1","tags":["simulated","rf","test"],"note":"Simulated RF metadata packet","source_format":"simulated_json_v1"}
{"timestamp":"2025-09-28T22:00:08.414984Z","sensor_id":"sim_rf_01","modality":"rf","location":{"lat":35.27108511005014,"lon":-78.63783523910413,"alt":145.50893422202753},"orientation":{"yaw":60.07706841365931,"pitch":5.841059240032273,"roll":-1.3814477550521165},"data":{"type":"frequency","value":908.906,"units":"MHz","confidence":0.95},"pid":"rf_signal_simulated_1","tags":["simulated","rf","test"],"note":"Simulated RF metadata packet","source_format":"simulated_json_v1"}
{"timestamp":"2025-09-28T22:00:09.415482Z","sensor_id":"sim_rf_01","modality":"rf","location":{"lat":35.27107814066147,"lon":-78.63782050120592,"alt":145.79799932020703},"orientation":{"yaw":24.690041926669014,"pitch":-4.318146045488547,"roll":-0.3251262798970691},"data":{"type":"frequency","value":905.493,"units":"MHz","confidence":0.88},"pid":"rf_signal_simulated_1","tags":["simulated","rf","test"],"note":"Simulated RF metadata packet","source_format":"simulated_json_v1"}
{"timestamp":"2025-09-28T22:00:10.416371Z","sensor_id":"sim_rf_01","modality":"rf","location":{"lat":35.27091628985355,"lon":-78.63748368904677,"alt":143.37757687433609},"orientation":{"yaw":321.60994682585516,"pitch":-3.7555375935469293,"roll":3.539010293639528},"data":{"type":"frequency","value":922.607,"units":"MHz","confidence":0.79},"pid":"rf_signal_simulated_1","tags":["simulated","rf","test"],"note":"Simulated RF metadata packet","source_format":"simulated_json_v1"}
{"timestamp":"2025-09-28T22:00:11.416639Z","sensor_id":"sim_rf_01","modality":"rf","location":{"lat":35.270927128354025,"lon":-78.63757277983636,"alt":145.0928703398627},"orientation":{"yaw":139.25950762359489,"pitch":-2.7376156163602605,"roll":-3.096734730951378},"data":{"type":"frequency","value":922.916,"units":"MHz","confidence":0.89},"pid":"rf_signal_simulated_1","tags":["simulated","rf","test"],"note":"Simulated RF metadata packet","source_format":"simulated_json_v1"}
{"timestamp":"2025-09-28T22:00:12.416880Z","sensor_id":"sim_rf_01","modality":"rf","location":{"lat":35.27141917181084,"lon":-78.63769227341767,"alt":146.91370778567494},"orientation":{"yaw":106.14187449672957,"pitch":-1.136080749011919,"roll":-4.539418040315958},"data":{"type":"frequency","value":916.397,"units":"MHz","confidence":0.7},"pid":"rf_signal_simulated_1","tags":["simulated","rf","test"],"note":"Simulated RF metadata packet","source_format":"simulated_json_v1"}
{"timestamp":"2025-09-28T22:00:13.417152Z","sensor_id":"sim_rf_01","modality":"rf","location":{"lat":35.27112811099554,"lon":-78.63719095943593,"alt":145.82631911605165},"orientation":{"yaw":37.14251461008866,"pitch":6.004701891528001,"roll":3.698661548745994},"data":{"type":"frequency","value":924.32,"units":"MHz","confidence":0.65},"pid":"rf_signal_simulated_1","tags":["simulated","rf","test"],"note":"Simulated RF metadata packet","source_format":"simulated_json_v1"}
{"timestamp":"2025-09-28T22:00:14.417639Z","sensor_id":"sim_rf_01","modality":"rf","location":{"lat":35.271164624494915,"lon":-78.63719453544032,"alt":146.65638076099367},"orientation":{"yaw":179.2245708900616,"pitch":9.59963646477157,"roll":2.0079273191835636},"data":{"type":"frequency","value":902.356,"units":"MHz","confidence":0.92},"pid":"rf_signal_simulated_1","tags":["simulated","rf","test"],"note":"Simulated RF metadata packet","source_format":"simulated_json_v1"}
{"timestamp":"2025-09-28T22:00:15.418350Z","sensor_id":"sim_rf_01","modality":"rf","location":{"lat":35.27136645977398,"lon":-78.63749599522546,"alt":146.99150399472825},"orientation":{"yaw":353.02123767890726,"pitch":-6.657546618677943,"roll":0.6868601618549972},"data":{"type":"frequency","value":920.587,"units":"MHz","confidence":0.52},"pid":"rf_signal_simulated_1","tags":["simulated","rf","test"],"note":"Simulated RF metadata packet","source_format":"simulated_json_v1"}
{"timestamp":"2025-09-28T22:00:16.418864Z","sensor_id":"sim_rf_01","modality":"rf","location":{"lat":35.27126125684293,"lon":-78.63759266710741,"alt":146.1539666180706},"orientation":{"yaw":146.0001825548185,"pitch":4.770200403491467,"roll":-2.5259146761978766},"data":{"type":"frequency","value":913.333,"units":"MHz","confidence":0.53},"pid":"rf_signal_simulated_1","tags":["simulated","rf","test"],"note":"Simulated RF metadata packet","source_format":"simulated_json_v1"}
{"timestamp":"2025-09-28T22:00:17.419427Z","sensor_id":"sim_rf_01","modality":"rf","location":{"lat":35.27189607971903,"lon":-78.63716923907421,"alt":145.00614439414994},"orientation":{"yaw":252.61702690006078,"pitch":-3.2325948957358763,"roll":2.603640444916291},"data":{"type":"frequency","value":916.11,"units":"MHz","confidence":0.76},"pid":"rf_signal_simulated_1","tags":["simulated","rf","test"],"note":"Simulated RF metadata packet","source_format":"simulated_json_v1"}
{"timestamp":"2025-09-28T22:00:18.420002Z","sensor_id":"sim_rf_01","modality":"rf","location":{"lat":35.27096903285316,"lon":-78.63785787425212,"alt":145.49175770447064},"orientation":{"yaw":305.0886898638212,"pitch":0.10800216253191408,"roll":3.4317926358437774},"data":{"type":"frequency","value":903.164,"units":"MHz","confidence":0.73},"pid":"rf_signal_simulated_1","tags":["simulated","rf","test"],"note":"Simulated RF metadata packet","source_format":"simulated_json_v1"}
{"timestamp":"2025-09-28T22:00:19.420568Z","sensor_id":"sim_rf_01","modality":"rf","location":{"lat":35.27100886779557,"lon":-78.63792655894224,"alt":143.87223861482678},"orientation":{"yaw":299.9307257447487,"pitch":1.2028084381570459,"roll":-4.077251168330949},"data":{"type":"frequency","value":927.069,"units":"MHz","confidence":0.68},"pid":"rf_signal_simulated_1","tags":["simulated","rf","test"],"note":"Simulated RF metadata packet","source_format":"simulated_json_v1"}
{"timestamp":"2025-09-28T22:00:20.420878Z","sensor_id":"sim_rf_01","modality":"rf","location":{"lat":35.27163090967155,"lon":-78.63753462402238,"alt":145.27850613754745},"orientation":{"yaw":19.35914842284666,"pitch":1.4386328314478103,"roll":4.998307350879653},"data":{"type":"frequency","value":911.175,"units":"MHz","confidence":0.96},"pid":"rf_signal_simulated_1","tags":["simulated","rf","test"],"note":"Simulated RF metadata packet","source_format":"simulated_json_v1"}
{"timestamp":"2025-09-28T22:00:21.421768Z","sensor_id":"sim_rf_01","modality":"rf","location":{"lat":35.27169195299909,"lon":-78.6379697372003,"alt":144.42722248929732},"orientation":{"yaw":37.75909207680711,"pitch":6.606982037303997,"roll":1.9270672578980843},"data":{"type":"frequency","value":921.721,"units":"MHz","confidence":0.57},"pid":"rf_signal_simulated_1","tags":["simulated","rf","test"],"note":"Simulated RF metadata packet","source_format":"simulated_json_v1"}
{"timestamp":"2025-09-28T22:00:22.422403Z","sensor_id":"sim_rf_01","modality":"rf","location":{"lat":35.27119209347129,"lon":-78.637484733285,"alt":146.70558254792013},"orientation":{"yaw":30.731921132757876,"pitch":6.378660658708608,"roll":-1.4600773867094796},"data":{"type":"frequency","value":912.361,"units":"MHz","confidence":0.89},"pid":"rf_signal_simulated_1","tags":["simulated","rf","test"],"note":"Simulated RF metadata packet","source_format":"simulated_json_v1"}
{"timestamp":"2025-09-28T22:00:23.423595Z","sensor_id":"sim_rf_01","modality":"rf","location":{"lat":35.27183823377402,"lon":-78.63717114859632,"alt":143.67024243091873},"orientation":{"yaw":159.31035569465303,"pitch":1.79345436754698,"roll":-3.012222404504449},"data":{"type":"frequency","value":905.86,"units":"MHz","confidence":0.52},"pid":"rf_signal_simulated_1","tags":["simulated","rf","test"],"note":"Simulated RF metadata packet","source_format":"simulated_json_v1"}
{"timestamp":"2025-09-28T22:00:24.424327Z","sensor_id":"sim_rf_01","modality":"rf","location":{"lat":35.271616375890105,"lon":-78.63747302132289,"alt":144.69752747508764},"orientation":{"yaw":291.4910493946889,"pitch":2.7178462913936627,"roll":-3.0976860382581686},"data":{"type":"frequency","value":925.034,"units":"MHz","confidence":0.64},"pid":"rf_signal_simulated_1","tags":["simulated","rf","test"],"note":"Simulated RF metadata packet","source_format":"simulated_json_v1"}
{"timestamp":"2025-09-28T22:00:25.424677Z","sensor_id":"sim_rf_01","modality":"rf","location":{"lat":35.271809311007814,"lon":-78.63738269006184,"alt":146.9925547401699},"orientation":{"yaw":260.7590972202924,"pitch":3.127654760646891,"roll":4.035185735718434},"data":{"type":"frequency","value":917.545,"units":"MHz","confidence":0.55},"pid":"rf_signal_simulated_1","tags":["simulated","rf","test"],"note":"Simulated RF metadata packet","source_format":"simulated_json_v1"}
{"timestamp":"2025-09-28T22:00:26.424904Z","sensor_id":"sim_rf_01","modality":"rf","location":{"lat":35.27106866310586,"lon":-78.63756845476856,"alt":146.0021247640369},"orientation":{"yaw":110.62456845277978,"pitch":-0.31670642102340274,"roll":2.3418283008454974},"data":{"type":"frequency","value":927.557,"units":"MHz","confidence":0.98},"pid":"rf_signal_simulated_1","tags":["simulated","rf","test"],"note":"Simulated RF metadata packet","source_format":"simulated_json_v1"}
