{"timestamp":"2025-09-28T22:00:00.405597Z","sensor_id":"sim_rf_01","modality":"rf","location":{"lat":35.27172543058273,"lon":-78.63800565923617,"alt":145.47575179693746},"orientation":{"yaw":207.8659594071338,"pitch":3.197562658577212,"roll":-3.209284973641041},"data":{"type":"frequency","value":921.805,"units":"MHz","confidence":0.62},"pid":"rf_signal_simulated_1","tags":["simulated","rf","test"],"note":"Simulated RF metadata packet","source_format":"simulated_json_v1"}
{"timestamp":"2025-09-28T22:00:01.407920Z","sensor_id":"sim_rf_01","modality":"rf","location":{"lat":35.27170373344781,"lon":-78.63774208884911,"alt":145.17276043842583},"orientation":{"yaw":56.13431491775464,"pitch":4.322892162006548,"roll":-0.002851586861183364},"data":{"type":"frequency","value":925.925,"units":"MHz","confidence":0.95},"pid":"rf_signal_simulated_1","tags":["simulated","rf","test"],"note":"Simulated RF metadata packet","source_format":"simulated_json_v1"}
{"timestamp":"2025-09-28T22:00:02.408790Z","sensor_id":"sim_rf_01","modality":"rf","location":{"lat":35.271032396824424,"lon":-78.6378978622775,"alt":146.7150912858459},"orientation":{"yaw":2.3939377059441025,"pitch":4.711305687177106,"roll":1.3886599817873444},"data":{"type":"frequency","value":927.299,"units":"MHz","confidence":0.9},"pid":"rf_signal_simulated_1","tags":["simulated","rf","test"],"note":"Simulated RF metadata packet","source_format":"simulated_json_v1"}
{"timestamp":"2025-09-28T22:00:03.409493Z","sensor_id":"sim_rf_01","modality":"rf","location":{"lat":35.27150551902304,"lon":-78.63790182715621,"alt":145.75156181047808},"orientation":{"yaw":143.6845506857463,"pitch":-1.313085963586989,"roll":-2.9762795646167763},"data":{"type":"frequency","value":910.211,"units":"MHz","confidence":0.84},"pid":"rf_signal_simulated_1","tags":["simulated","rf","test"],"note":"Simulated RF metadata packet","source_format":"simulated_json_v1"}
{"timestamp":"2025-09-28T22:00:04.410909Z","sensor_id":"sim_rf_01","modality":"rf","location":{"lat":35.27122229789361,"lon":-78.6372773308363,"alt":144.31717534513822},"orientation":{"yaw":203.03138973841737,"pitch":5.723202178477626,"roll":-1.0305114661566117},"data":{"type":"frequency","value":925.797,"units":"MHz","confidence":0.71},"pid":"rf_signal_simulated_1","tags":["simulated","rf","test"],"note":"Simulated RF metadata packet","source_format":"simulated_json_v1"}
{"timestamp":"2025-09-28T22:00:05.412416Z","sensor_id":"sim_rf_01","modality":"rf","location":{"lat":35.27162480572084,"lon":-78.6380528309699,"alt":146.64801872845388},"orientation":{"yaw":25.12098959632778,"pitch":-4.16861865169345,"roll":-2.1942159364842686},"data":{"type":"frequency","value":910.287,"units":"MHz","confidence":0.67},"pid":"rf_signal_simulated_1","tags":["simulated","rf","test"],"note":"Simulated RF metadata packet","source_format":"simulated_json_v1"}
{"timestamp":"2025-09-28T22:00:06.413342Z","sensor_id":"sim_rf_01","modality":"rf","location":{"lat":35.27099619459645,"lon":-78.63754318140447,"alt":143.48110468297722},"orientation":{"yaw":137.20517056144737,"pitch":0.38478485149218855,"roll":-4.460686673251596},"data":{"type":"frequency","value":908.299,"units":"MHz","confidence":0.96},"pid":"rf_signal_simulated_1","tags":["simulated","rf","test"],"note":"Simulated RF metadata packet","source_format":"simulated_json_v1"}
{"timestamp":"2025-09-28T22:00:07.414031Z","sensor_id":"sim_rf_01","modality":"rf","location":{"lat":35.270940376384495,"lon":-78.63757378731911,"alt":143.99940803090894},"orientation":{"yaw":9.442532397287323,"pitch":-3.561439271498042,"roll":1.616983221673399},"data":{"type":"frequency","value":927.1,"units":"MHz","confidence":0.98},"pid":"rf_signal_simulated_1","tags":["simulated","rf","test"],"note":"Simulated RF metadata packet","source_format":"simulated_json_v1"}
{"timestamp":"2025-09-28T22:00:08.414984Z","sensor_id":"sim_rf_01","modality":"rf","location":{"lat":35.27108511005014,"lon":-78.63783523910413,"alt":145.50893422202753},"orientation":{"yaw":60.07706841365931,"pitch":5.841059240032273,"roll":-1.3814477550521165},"data":{"type":"frequency","value":908.906,"units":"MHz","confidence":0.95},"pid":"rf_signal_simulated_1","tags":["simulated","rf","test"],"note":"Simulated RF metadata packet","source_format":"simulated_json_v1"}
{"timestamp":"2025-09-28T22:00:09.415482Z","sensor_id":"sim_rf_01","modality":"rf","location":{"lat":35.27107814066147,"lon":-78.63782050120592,"alt":145.79799932020703},"orientation":{"yaw":24.690041926669014,"pitch":-4.318146045488547,"roll":-0.3251262798970691},"data":{"type":"frequency","value":905.493,"units":"MHz","confidence":0.88},"pid":"rf_signal_simulated_1","tags":["simulated","rf","test"],"note":"Simulated RF metadata packet","source_format":"simulated_json_v1"}
{"timestamp":"2025-09-28T22:00:10.416371Z","sensor_id":"sim_rf_01","modality":"rf","location":{"lat":35.27091628985355,"lon":-78.63748368904677,"alt":143.37757687433609},"orientation":{"yaw":321.60994682585516,"pitch":-3.7555375935469293,"roll":3.539010293639528},"data":{"type":"frequency","value":922.607,"units":"MHz","confidence":0.79},"pid":"rf_signal_simulated_1","tags":["simulated","rf","test"],"note":"Simulated RF metadata packet","source_format":"simulated_json_v1"}
{"timestamp":"2025-09-28T22:00:11.416639Z","sensor_id":"sim_rf_01","modality":"rf","location":{"lat":35.270927128354025,"lon":-78.63757277983636,"alt":145.0928703398627},"orientation":{"yaw":139.25950762359489,"pitch":-2.7376156163602605,"roll":-3.096734730951378},"data":{"type":"frequency","value":922.916,"units":"MHz","confidence":0.89},"pid":"rf_signal_simulated_1","tags":["simulated","rf","test"],"note":"Simulated RF metadata packet","source_format":"simulated_json_v1"}
{"timestamp":"2025-09-28T22:00:12.416880Z","sensor_id":"sim_rf_01","modality":"rf","location":{"lat":35.27141917181084,"lon":-78.63769227341767,"alt":146.91370778567494},"orientation":{"yaw":106.14187449672957,"pitch":-1.136080749011919,"roll":-4.539418040315958},"data":{"type":"frequency","value":916.397,"units":"MHz","confidence":0.7},"pid":"rf_signal_simulated_1","tags":["simulated","rf","test"],"note":"Simulated RF metadata packet","source_format":"simulated_json_v1"}
{"timestamp":"2025-09-28T22:00:13.417152Z","sensor_id":"sim_rf_01","modality":"rf","location":{"lat":35.27112811099554,"lon":-78.63719095943593,"alt":145.82631911605165},"orientation":{"yaw":37.14251461008866,"pitch":6.004701891528001,"roll":3.698661548745994},"data":{"type":"frequency","value":924.32,"units":"MHz","confidence":0.65},"pid":"rf_signal_simulated_1","tags":["simulated","rf","test"],"note":"Simulated RF metadata packet","source_format":"simulated_json_v1"}
{"timestamp":"2025-09-28T22:00:14.417639Z","sensor_id":"sim_rf_01","modality":"rf","location":{"lat":35.271164624494915,"lon":-78.63719453544032,"alt":146.65638076099367},"orientation":{"yaw":179.2245708900616,"pitch":9.59963646477157,"roll":2.0079273191835636},"data":{"type":"frequency","value":902.356,"units":"MHz","confidence":0.92},"pid":"rf_signal_simulated_1","tags":["simulated","rf","test"],"note":"Simulated RF metadata packet","source_format":"simulated_json_v1"}
{"timestamp":"2025-09-28T22:00:15.418350Z","sensor_id":"sim_rf_01","modality":"rf","location":{"lat":35.27136645977398,"lon":-78.63749599522546,"alt":146.99150399472825},"orientation":{"yaw":353.02123767890726,"pitch":-6.657546618677943,"roll":0.6868601618549972},"data":{"type":"frequency","value":920.587,"units":"MHz","confidence":0.52},"pid":"rf_signal_simulated_1","tags":["simulated","rf","test"],"note":"Simulated RF metadata packet","source_format":"simulated_json_v1"}
{"timestamp":"2025-09-28T22:00:16.418864Z","sensor_id":"sim_rf_01","modality":"rf","location":{"lat":35.27126125684293,"lon":-78.63759266710741,"alt":146.1539666180706},"orientation":{"yaw":146.0001825548185,"pitch":4.770200403491467,"roll":-2.5259146761978766},"data":{"type":"frequency","value":913.333,"units":"MHz","confidence":0.53},"pid":"rf_signal_simulated_1","tags":["simulated","rf","test"],"note":"Simulated RF metadata packet","source_format":"simulated_json_v1"}
{"timestamp":"2025-09-28T22:00:17.419427Z","sensor_id":"sim_rf_01","modality":"rf","location":{"lat":35.27189607971903,"lon":-78.63716923907421,"alt":145.00614439414994},"orientation":{"yaw":252.61702690006078,"pitch":-3.2325948957358763,"roll":2.603640444916291},"data":{"type":"frequency","value":916.11,"units":"MHz","confidence":0.76},"pid":"rf_signal_simulated_1","tags":["simulated","rf","test"],"note":"Simulated RF metadata packet","source_format":"simulated_json_v1"}
{"timestamp":"2025-09-28T22:00:18.420002Z","sensor_id":"sim_rf_01","modality":"rf","location":{"lat":35.27096903285316,"lon":-78.63785787425212,"alt":145.49175770447064},"orientation":{"yaw":305.0886898638212,"pitch":0.10800216253191408,"roll":3.4317926358437774},"data":{"type":"frequency","value":903.164,"units":"MHz","confidence":0.73},"pid":"rf_signal_simulated_1","tags":["simulated","rf","test"],"note":"Simulated RF metadata packet","source_format":"simulated_json_v1"}
{"timestamp":"2025-09-28T22:00:19.420568Z","sensor_id":"sim_rf_01","modality":"rf","location":{"lat":35.27100886779557,"lon":-78.63792655894224,"alt":143.87223861482678},"orientation":{"yaw":299.9307257447487,"pitch":1.2028084381570459,"roll":-4.077251168330949},"data":{"type":"frequency","value":927.069,"units":"MHz","confidence":0.68},"pid":"rf_signal_simulated_1","tags":["simulated","rf","test"],"note":"Simulated RF metadata packet","source_format":"simulated_json_v1"}
{"timestamp":"2025-09-28T22:00:20.420878Z","sensor_id":"sim_rf_01","modality":"rf","location":{"lat":35.27163090967155,"lon":-78.63753462402238,"alt":145.27850613754745},"orientation":{"yaw":19.35914842284666,"pitch":1.4386328314478103,"roll":4.998307350879653},"data":{"type":"frequency","value":911.175,"units":"MHz","confidence":0.96},"pid":"rf_signal_simulated_1","tags":["simulated","rf","test"],"note":"Simulated RF metadata packet","source_format":"simulated_json_v1"}
{"timestamp":"2025-09-28T22:00:21.421768Z","sensor_id":"sim_rf_01","modality":"rf","location":{"lat":35.27169195299909,"lon":-78.6379697372003,"alt":144.42722248929732},"orientation":{"yaw":37.75909207680711,"pitch":6.606982037303997,"roll":1.9270672578980843},"data":{"type":"frequency","value":921.721,"units":"MHz","confidence":0.57},"pid":"rf_signal_simulated_1","tags":["simulated","rf","test"],"note":"Simulated RF metadata packet","source_format":"simulated_json_v1"}
{"timestamp":"2025-09-28T22:00:22.422403Z","sensor_id":"sim_rf_01","modality":"rf","location":{"lat":35.27119209347129,"lon":-78.637484733285,"alt":146.70558254792013},"orientation":{"yaw":30.731921132757876,"pitch":6.378660658708608,"roll":-1.4600773867094796},"data":{"type":"frequency","value":912.361,"units":"MHz","confidence":0.89},"pid":"rf_signal_simulated_1","tags":["simulated","rf","test"],"note":"Simulated RF metadata packet","source_format":"simulated_json_v1"}
{"timestamp":"2025-09-28T22:00:23.423595Z","sensor_id":"sim_rf_01","modality":"rf","location":{"lat":35.27183823377402,"lon":-78.63717114859632,"alt":143.67024243091873},"orientation":{"yaw":159.31035569465303,"pitch":1.79345436754698,"roll":-3.012222404504449},"data":{"type":"frequency","value":905.86,"units":"MHz","confidence":0.52},"pid":"rf_signal_simulated_1","tags":["simulated","rf","test"],"note":"Simulated RF metadata packet","source_format":"simulated_json_v1"}
{"timestamp":"2025-09-28T22:00:24.424327Z","sensor_id":"sim_rf_01","modality":"rf","location":{"lat":35.271616375890105,"lon":-78.63747302132289,"alt":144.69752747508764},"orientation":{"yaw":291.4910493946889,"pitch":2.7178462913936627,"roll":-3.0976860382581686},"data":{"type":"frequency","value":925.034,"units":"MHz","confidence":0.64},"pid":"rf_signal_simulated_1","tags":["simulated","rf","test"],"note":"Simulated RF metadata packet","source_format":"simulated_json_v1"}
{"timestamp":"2025-09-28T22:00:25.424677Z","sensor_id":"sim_rf_01","modality":"rf","location":{"lat":35.271809311007814,"lon":-78.63738269006184,"alt":146.9925547401699},"orientation":{"yaw":260.7590972202924,"pitch":3.127654760646891,"roll":4.035185735718434},"data":{"type":"frequency","value":917.545,"units":"MHz","confidence":0.55},"pid":"rf_signal_simulated_1","tags":["simulated","rf","test"],"note":"Simulated RF metadata packet","source_format":"simulated_json_v1"}
{"timestamp":"2025-09-28T22:00:26.424904Z","sensor_id":"sim_rf_01","modality":"rf","location":{"lat":35.27106866310586,"lon":-78.63756845476856,"alt":146.0021247640369},"orientation":{"yaw":110.62456845277978,"pitch":-0.31670642102340274,"roll":2.3418283008454974},"data":{"type":"frequency","value":927.557,"units":"MHz","confidence":0.98},"pid":"rf_signal_simulated_1","tags":["simulated","rf","test"],"note":"Simulated RF metadata packet","source_format":"simulated_json_v1"}
{"timestamp":"2025-09-28T22:05:21.658290Z","sensor_id":"sim_rf_01","modality":"rf","location":{"lat":35.27148194098558,"lon":-78.63772865738372,"alt":143.70511969392058},"orientation":{"yaw":23.741638360211226,"pitch":-7.50440216734596,"roll":4.409350209538683},"data":{"type":"frequency","value":923.977,"units":"MHz","confidence":0.75},"pid":"rf_signal_simulated_1","tags":["simulated","rf","test"],"note":"Simulated RF metadata packet","source_format":"simulated_json_v1"}
{"timestamp":"2025-09-28T22:05:22.658890Z","sensor_id":"sim_rf_01","modality":"rf","location":{"lat":35.27142506726042,"lon":-78.63800765529456,"alt":144.60844292814534},"orientation":{"yaw":299.50484097168123,"pitch":-9.04788964955493,"roll":-2.8821876829386763},"data":{"type":"frequency","value":913.399,"units":"MHz","confidence":0.61},"pid":"rf_signal_simulated_1","tags":["simulated","rf","test"],"note":"Simulated RF metadata packet","source_format":"simulated_json_v1"}
{"timestamp":"2025-09-28T22:05:23.659298Z","sensor_id":"sim_rf_01","modality":"rf","location":{"lat":35.27184787433468,"lon":-78.63761619143281,"alt":143.0873884296767},"orientation":{"yaw":130.72220976230597,"pitch":-8.194114298745792,"roll":-2.196411618279549},"data":{"type":"frequency","value":902.541,"units":"MHz","confidence":0.99},"pid":"rf_signal_simulated_1","tags":["simulated","rf","test"],"note":"Simulated RF metadata packet","source_format":"simulated_json_v1"}
{"timestamp":"2025-09-28T22:05:24.659846Z","sensor_id":"sim_rf_01","modality":"rf","location":{"lat":35.27090797735124,"lon":-78.63723438465945,"alt":144.57115816728776},"orientation":{"yaw":101.64614611844318,"pitch":-1.4134921986142963,"roll":-1.940561724328933},"data":{"type":"frequency","value":904.876,"units":"MHz","confidence":0.68},"pid":"rf_signal_simulated_1","tags":["simulated","rf","test"],"note":"Simulated RF metadata packet","source_format":"simulated_json_v1"}
{"timestamp":"2025-09-28T22:05:25.660665Z","sensor_id":"sim_rf_01","modality":"rf","location":{"lat":35.2709109392851,"lon":-78.6379392668622,"alt":146.704845226204},"orientation":{"yaw":314.91016610020074,"pitch":1.3140642096273574,"roll":2.963499996721339},"data":{"type":"frequency","value":921.818,"units":"MHz","confidence":0.94},"pid":"rf_signal_simulated_1","tags":["simulated","rf","test"],"note":"Simulated RF metadata packet","source_format":"simulated_json_v1"}
{"timestamp":"2025-09-28T22:05:26.661182Z","sensor_id":"sim_rf_01","modality":"rf","location":{"lat":35.271831470567435,"lon":-78.63768653923134,"alt":146.67400740854112},"orientation":{"yaw":353.27310650249086,"pitch":9.517162721155483,"roll":0.5989671131802581},"data":{"type":"frequency","value":923.533,"units":"MHz","confidence":0.55},"pid":"rf_signal_simulated_1","tags":["simulated","rf","test"],"note":"Simulated RF metadata packet","source_format":"simulated_json_v1"}
{"timestamp":"2025-09-28T22:05:27.661418Z","sensor_id":"sim_rf_01","modality":"rf","location":{"lat":35.27138073365364,"lon":-78.63718051242263,"alt":143.3489743633933},"orientation":{"yaw":109.00023852602486,"pitch":0.33849652478452086,"roll":-4.7135650060951875},"data":{"type":"frequency","value":922.388,"units":"MHz","confidence":0.52},"pid":"rf_signal_simulated_1","tags":["simulated","rf","test"],"note":"Simulated RF metadata packet","source_format":"simulated_json_v1"}
{"timestamp":"2025-09-28T22:05:28.661676Z","sensor_id":"sim_rf_01","modality":"rf","location":{"lat":35.27188414521462,"lon":-78.63739737912736,"alt":144.56311084457778},"orientation":{"yaw":129.13517206097876,"pitch":-9.319511975927302,"roll":2.5101901737967927},"data":{"type":"frequency","value":919.419,"units":"MHz","confidence":0.76},"pid":"rf_signal_simulated_1","tags":["simulated","rf","test"],"note":"Simulated RF metadata packet","source_format":"simulated_json_v1"}
{"timestamp":"2025-09-28T22:05:29.662129Z","sensor_id":"sim_rf_01","modality":"rf","location":{"lat":35.27133987727731,"lon":-78.63780200050341,"alt":143.69684851846216},"orientation":{"yaw":336.11808681353295,"pitch":-6.231075058243101,"roll":-2.893191067974313},"data":{"type":"frequency","value":904.964,"units":"MHz","confidence":0.53},"pid":"rf_signal_simulated_1","tags":["simulated","rf","test"],"note":"Simulated RF metadata packet","source_format":"simulated_json_v1"}
{"timestamp":"2025-09-28T22:05:30.663305Z","sensor_id":"sim_rf_01","modality":"rf","location":{"lat":35.271371719932546,"lon":-78.63716240173802,"alt":144.67402398724533},"orientation":{"yaw":256.94816436066117,"pitch":3.2097469409117636,"roll":2.9178558821658287},"data":{"type":"frequency","value":906.424,"units":"MHz","confidence":0.61},"pid":"rf_signal_simulated_1","tags":["simulated","rf","test"],"note":"Simulated RF metadata packet","source_format":"simulated_json_v1"}
{"timestamp":"2025-09-28T22:05:31.665042Z","sensor_id":"sim_rf_01","modality":"rf","location":{"lat":35.27156736451137,"lon":-78.63765325570081,"alt":143.90280784164528},"orientation":{"yaw":175.82254466327618,"pitch":5.4388816968131515,"roll":-0.8866769691809555},"data":{"type":"frequency","value":916.511,"units":"MHz","confidence":0.84},"pid":"rf_signal_simulated_1","tags":["simulated","rf","test"],"note":"Simulated RF metadata packet","source_format":"simulated_json_v1"}
{"timestamp":"2025-09-28T22:05:32.666158Z","sensor_id":"sim_rf_01","modality":"rf","location":{"lat":35.271762109297825,"lon":-78.63719305692179,"alt":146.9113270217806},"orientation":{"yaw":353.6487545033309,"pitch":8.808495966898356,"roll":-0.9313433015230599},"data":{"type":"frequency","value":918.062,"units":"MHz","confidence":0.75},"pid":"rf_signal_simulated_1","tags":["simulated","rf","test"],"note":"Simulated RF metadata packet","source_format":"simulated_json_v1"}
{"timestamp":"2025-09-28T22:05:33.667347Z","sensor_id":"sim_rf_01","modality":"rf","location":{"lat":35.27175991936318,"lon":-78.63777200536084,"alt":145.03484442862933},"orientation":{"yaw":353.90353101157785,"pitch":-0.2152917025285035,"roll":4.381953253861221},"data":{"type":"frequency","value":906.206,"units":"MHz","confidence":0.7},"pid":"rf_signal_simulated_1","tags":["simulated","rf","test"],"note":"Simulated RF metadata packet","source_format":"simulated_json_v1"}
{"timestamp":"2025-09-28T22:05:34.668019Z","sensor_id":"sim_rf_01","modality":"rf","location":{"lat":35.27177878096337,"lon":-78.63727487678108,"alt":144.32561315675147},"orientation":{"yaw":299.93490288056563,"pitch":3.205813792205321,"roll":-1.3627954719314594},"data":{"type":"frequency","value":910.886,"units":"MHz","confidence":0.77},"pid":"rf_signal_simulated_1","tags":["simulated","rf","test"],"note":"Simulated RF metadata packet","source_format":"simulated_json_v1"}
{"timestamp":"2025-09-28T22:05:35.668615Z","sensor_id":"sim_rf_01","modality":"rf","location":{"lat":35.2713634083897,"lon":-78.63754793703936,"alt":145.95984504838032},"orientation":{"yaw":302.82851975419885,"pitch":0.07399835602472926,"roll":-0.637972495111832},"data":{"type":"frequency","value":910.943,"units":"MHz","confidence":0.71},"pid":"rf_signal_simulated_1","tags":["simulated","rf","test"],"note":"Simulated RF metadata packet","source_format":"simulated_json_v1"}
{"timestamp":"2025-09-28T22:05:36.670012Z","sensor_id":"sim_rf_01","modality":"rf","location":{"lat":35.27172366885372,"lon":-78.63768664824046,"alt":146.6048382851919},"orientation":{"yaw":304.6555073163304,"pitch":8.442303532117823,"roll":1.2372088701292245},"data":{"type":"frequency","value":903.221,"units":"MHz","confidence":0.71},"pid":"rf_signal_simulated_1","tags":["simulated","rf","test"],"note":"Simulated RF metadata packet","source_format":"simulated_json_v1"}
{"timestamp":"2025-09-28T22:05:37.671507Z","sensor_id":"sim_rf_01","modality":"rf","location":{"lat":35.271772193861736,"lon":-78.63798197635846,"alt":144.40255643834578},"orientation":{"yaw":57.59908870693624,"pitch":-4.319397036913628,"roll":1.2204609042228682},"data":{"type":"frequency","value":911.1,"units":"MHz","confidence":0.74},"pid":"rf_signal_simulated_1","tags":["simulated","rf","test"],"note":"Simulated RF metadata packet","source_format":"simulated_json_v1"}
{"timestamp":"2025-09-28T22:05:38.675608Z","sensor_id":"sim_rf_01","modality":"rf","location":{"lat":35.27174862080872,"lon":-78.63757906005347,"alt":145.82568749766116},"orientation":{"yaw":40.6347448338138,"pitch":-1.8519980958342117,"roll":0.6977404821699684},"data":{"type":"frequency","value":911.891,"units":"MHz","confidence":0.58},"pid":"rf_signal_simulated_1","tags":["simulated","rf","test"],"note":"Simulated RF metadata packet","source_format":"simulated_json_v1"}
{"timestamp":"2025-09-28T22:05:39.676280Z","sensor_id":"sim_rf_01","modality":"rf","location":{"lat":35.27163002317943,"lon":-78.63758791470882,"alt":144.43480973409734},"orientation":{"yaw":66.7593466941646,"pitch":7.412618799272327,"roll":4.882316885848983},"data":{"type":"frequency","value":916.269,"units":"MHz","confidence":0.78},"pid":"rf_signal_simulated_1","tags":["simulated","rf","test"],"note":"Simulated RF metadata packet","source_format":"simulated_json_v1"}
{"timestamp":"2025-09-28T22:05:40.677114Z","sensor_id":"sim_rf_01","modality":"rf","location":{"lat":35.2718352519886,"lon":-78.6373503717643,"alt":144.48853207813562},"orientation":{"yaw":160.1145860692916,"pitch":-3.3534014325978045,"roll":-1.068863119433411},"data":{"type":"frequency","value":913.499,"units":"MHz","confidence":0.93},"pid":"rf_signal_simulated_1","tags":["simulated","rf","test"],"note":"Simulated RF metadata packet","source_format":"simulated_json_v1"}
{"timestamp":"2025-09-28T22:05:41.677957Z","sensor_id":"sim_rf_01","modality":"rf","location":{"lat":35.27139844651865,"lon":-78.63801435974435,"alt":146.7322424370641},"orientation":{"yaw":341.1050689369397,"pitch":-6.393857284955478,"roll":3.650574252357611},"data":{"type":"frequency","value":922.842,"units":"MHz","confidence":0.63},"pid":"rf_signal_simulated_1","tags":["simulated","rf","test"],"note":"Simulated RF metadata packet","source_format":"simulated_json_v1"}
{"timestamp":"2025-09-28T22:05:42.678570Z","sensor_id":"sim_rf_01","modality":"rf","location":{"lat":35.2713031885497,"lon":-78.63803684290319,"alt":146.41867982216235},"orientation":{"yaw":274.5231410655018,"pitch":3.781057982421814,"roll":-3.212407911893699},"data":{"type":"frequency","value":927.661,"units":"MHz","confidence":0.85},"pid":"rf_signal_simulated_1","tags":["simulated","rf","test"],"note":"Simulated RF metadata packet","source_format":"simulated_json_v1"}
{"timestamp":"2025-09-28T22:05:43.678929Z","sensor_id":"sim_rf_01","modality":"rf","location":{"lat":35.27103443374134,"lon":-78.63712279668772,"alt":146.28212961271518},"orientation":{"yaw":231.5993522024047,"pitch":-6.365662770403864,"roll":-4.44861374741953},"data":{"type":"frequency","value":903.609,"units":"MHz","confidence":0.91},"pid":"rf_signal_simulated_1","tags":["simulated","rf","test"],"note":"Simulated RF metadata packet","source_format":"simulated_json_v1"}
{"timestamp":"2025-09-28T22:05:44.679889Z","sensor_id":"sim_rf_01","modality":"rf","location":{"lat":35.27145811762629,"lon":-78.63735249148635,"alt":146.7726421602689},"orientation":{"yaw":220.8629072359147,"pitch":-9.699063378839188,"roll":-2.904418895407661},"data":{"type":"frequency","value":927.73,"units":"MHz","confidence":0.89},"pid":"rf_signal_simulated_1","tags":["simulated","rf","test"],"note":"Simulated RF metadata packet","source_format":"simulated_json_v1"}
{"timestamp":"2025-09-28T22:05:45.680247Z","sensor_id":"sim_rf_01","modality":"rf","location":{"lat":35.27100895072393,"lon":-78.63777437285177,"alt":145.68808967255342},"orientation":{"yaw":321.2651979188991,"pitch":-0.883483269718532,"roll":-1.7430145175657974},"data":{"type":"frequency","value":920.246,"units":"MHz","confidence":0.85},"pid":"rf_signal_simulated_1","tags":["simulated","rf","test"],"note":"Simulated RF metadata packet","source_format":"simulated_json_v1"}
{"timestamp":"2025-09-28T22:05:46.680962Z","sensor_id":"sim_rf_01","modality":"rf","location":{"lat":35.2716552198115,"lon":-78.63753101979609,"alt":146.36865030894015},"orientation":{"yaw":45.99201803368701,"pitch":-4.463067503536373,"roll":0.5033414693188076},"data":{"type":"frequency","value":917.538,"units":"MHz","confidence":0.63},"pid":"rf_signal_simulated_1","tags":["simulated","rf","test"],"note":"Simulated RF metadata packet","source_format":"simulated_json_v1"}
{"timestamp":"2025-09-28T22:05:47.682079Z","sensor_id":"sim_rf_01","modality":"rf","location":{"lat":35.271653374781934,"lon":-78.63729121167349,"alt":144.52969873408804},"orientation":{"yaw":32.37561628063163,"pitch":2.1743277638353575,"roll":-3.3542773766211487},"data":{"type":"frequency","value":911.298,"units":"MHz","confidence":0.83},"pid":"rf_signal_simulated_1","tags":["simulated","rf","test"],"note":"Simulated RF metadata packet","source_format":"simulated_json_v1"}
{"timestamp":"2025-09-28T22:05:48.683349Z","sensor_id":"sim_rf_01","modality":"rf","location":{"lat":35.271280047240616,"lon":-78.63753909969002,"alt":145.0216259212575},"orientation":{"yaw":234.24544798923017,"pitch":8.023416137277643,"roll":-2.6582682994377516},"data":{"type":"frequency","value":920.749,"units":"MHz","confidence":0.68},"pid":"rf_signal_simulated_1","tags":["simulated","rf","test"],"note":"Simulated RF metadata packet","source_format":"simulated_json_v1"}
{"timestamp":"2025-09-28T22:05:49.684164Z","sensor_id":"sim_rf_01","modality":"rf","location":{"lat":35.27114980527973,"lon":-78.63796450328456,"alt":144.74096954262467},"orientation":{"yaw":307.69968199112986,"pitch":-2.11824068418764,"roll":1.1474176876677697},"data":{"type":"frequency","value":906.437,"units":"MHz","confidence":0.92},"pid":"rf_signal_simulated_1","tags":["simulated","rf","test"],"note":"Simulated RF metadata packet","source_format":"simulated_json_v1"}
{"timestamp":"2025-09-28T22:05:50.684915Z","sensor_id":"sim_rf_01","modality":"rf","location":{"lat":35.27129649975691,"lon":-78.63751134983303,"alt":145.38254406497495},"orientation":{"yaw":218.09839325183134,"pitch":5.105220756474667,"roll":-0.1940289797459025},"data":{"type":"frequency","value":910.68,"units":"MHz","confidence":0.64},"pid":"rf_signal_simulated_1","tags":["simulated","rf","test"],"note":"Simulated RF metadata packet","source_format":"simulated_json_v1"}
{"timestamp":"2025-09-28T22:05:51.685220Z","sensor_id":"sim_rf_01","modality":"rf","location":{"lat":35.271266454253265,"lon":-78.63728628870876,"alt":144.58141958269078},"orientation":{"yaw":16.887506204574734,"pitch":0.34958922614283594,"roll":2.3144690100716705},"data":{"type":"frequency","value":921.123,"units":"MHz","confidence":0.58},"pid":"rf_signal_simulated_1","tags":["simulated","rf","test"],"note":"Simulated RF metadata packet","source_format":"simulated_json_v1"}
{"timestamp":"2025-09-28T22:05:52.688295Z","sensor_id":"sim_rf_01","modality":"rf","location":{"lat":35.271463699857506,"lon":-78.63767050076157,"alt":143.131185092045},"orientation":{"yaw":172.02883160486493,"pitch":5.999276298098977,"roll":4.585220958923859},"data":{"type":"frequency","value":912.453,"units":"MHz","confidence":0.85},"pid":"rf_signal_simulated_1","tags":["simulated","rf","test"],"note":"Simulated RF metadata packet","source_format":"simulated_json_v1"}
{"timestamp":"2025-09-28T22:05:53.689030Z","sensor_id":"sim_rf_01","modality":"rf","location":{"lat":35.27156482592484,"lon":-78.6373393179216,"alt":143.1658689522114},"orientation":{"yaw":325.7818402826091,"pitch":8.22184102307768,"roll":-2.131749732299241},"data":{"type":"frequency","value":916.824,"units":"MHz","confidence":0.66},"pid":"rf_signal_simulated_1","tags":["simulated","rf","test"],"note":"Simulated RF metadata packet","source_format":"simulated_json_v1"}
{"timestamp":"2025-09-28T22:05:54.689379Z","sensor_id":"sim_rf_01","modality":"rf","location":{"lat":35.271802938730744,"lon":-78.63738881785892,"alt":144.0965220577743},"orientation":{"yaw":146.59668391807944,"pitch":9.984682543939229,"roll":1.8335065829614656},"data":{"type":"frequency","value":916.775,"units":"MHz","confidence":0.78},"pid":"rf_signal_simulated_1","tags":["simulated","rf","test"],"note":"Simulated RF metadata packet","source_format":"simulated_json_v1"}
{"timestamp":"2025-09-28T22:05:55.690246Z","sensor_id":"sim_rf_01","modality":"rf","location":{"lat":35.271253860525945,"lon":-78.63710816428643,"alt":144.2923874871142},"orientation":{"yaw":197.02990748692338,"pitch":0.5048060314900464,"roll":4.216766556605254},"data":{"type":"frequency","value":923.757,"units":"MHz","confidence":0.69},"pid":"rf_signal_simulated_1","tags":["simulated","rf","test"],"note":"Simulated RF metadata packet","source_format":"simulated_json_v1"}
{"timestamp":"2025-09-28T22:05:56.691139Z","sensor_id":"sim_rf_01","modality":"rf","location":{"lat":35.27093846642765,"lon":-78.63728421165139,"alt":145.15731661681096},"orientation":{"yaw":190.33481171287838,"pitch":5.983978554753641,"roll":0.19026770332872278},"data":{"type":"frequency","value":912.768,"units":"MHz","confidence":0.92},"pid":"rf_signal_simulated_1","tags":["simulated","rf","test"],"note":"Simulated RF metadata packet","source_format":"simulated_json_v1"}
{"timestamp":"2025-09-28T22:05:57.691786Z","sensor_id":"sim_rf_01","modality":"rf","location":{"lat":35.27118015207281,"lon":-78.63718246785076,"alt":145.21828936323115},"orientation":{"yaw":243.98599466738386,"pitch":-6.954806106352917,"roll":1.7544204317196943},"data":{"type":"frequency","value":919.14,"units":"MHz","confidence":0.7},"pid":"rf_signal_simulated_1","tags":["simulated","rf","test"],"note":"Simulated RF metadata packet","source_format":"simulated_json_v1"}
{"timestamp":"2025-09-28T22:05:58.693270Z","sensor_id":"sim_rf_01","modality":"rf","location":{"lat":35.271011706219376,"lon":-78.63785011052629,"alt":145.24980407600145},"orientation":{"yaw":99.82565622646878,"pitch":-3.0439974504574474,"roll":-2.560705312521785},"data":{"type":"frequency","value":910.211,"units":"MHz","confidence":0.61},"pid":"rf_signal_simulated_1","tags":["simulated","rf","test"],"note":"Simulated RF metadata packet","source_format":"simulated_json_v1"}
{"timestamp":"2025-09-28T22:05:59.693522Z","sensor_id":"sim_rf_01","modality":"rf","location":{"lat":35.271755898460334,"lon":-78.63770468059285,"alt":143.9153105234864},"orientation":{"yaw":152.8381149183161,"pitch":0.7330654788793609,"roll":2.2097335780248137},"data":{"type":"frequency","value":925.051,"units":"MHz","confidence":0.98},"pid":"rf_signal_simulated_1","tags":["simulated","rf","test"],"note":"Simulated RF metadata packet","source_format":"simulated_json_v1"}
{"timestamp":"2025-09-28T22:06:00.694063Z","sensor_id":"sim_rf_01","modality":"rf","location":{"lat":35.27163939895922,"lon":-78.63752643624343,"alt":144.41107002284684},"orientation":{"yaw":129.00204772629635,"pitch":8.715787377068242,"roll":1.5713143423305045},"data":{"type":"frequency","value":912.147,"units":"MHz","confidence":0.82},"pid":"rf_signal_simulated_1","tags":["simulated","rf","test"],"note":"Simulated RF metadata packet","source_format":"simulated_json_v1"}
{"timestamp":"2025-09-28T22:06:01.694665Z","sensor_id":"sim_rf_01","modality":"rf","location":{"lat":35.27157733476648,"lon":-78.63771373392638,"alt":143.34099095374563},"orientation":{"yaw":42.67931347293451,"pitch":-5.2888607254644775,"roll":-2.6971308930046445},"data":{"type":"frequency","value":919.461,"units":"MHz","confidence":0.91},"pid":"rf_signal_simulated_1","tags":["simulated","rf","test"],"note":"Simulated RF metadata packet","source_format":"simulated_json_v1"}
{"timestamp":"2025-09-28T22:06:02.695361Z","sensor_id":"sim_rf_01","modality":"rf","location":{"lat":35.27146136194705,"lon":-78.63768483748082,"alt":145.14863517670983},"orientation":{"yaw":277.6147709467141,"pitch":-4.778289430497189,"roll":4.1368895790325535},"data":{"type":"frequency","value":927.159,"units":"MHz","confidence":0.85},"pid":"rf_signal_simulated_1","tags":["simulated","rf","test"],"note":"Simulated RF metadata packet","source_format":"simulated_json_v1"}
{"timestamp":"2025-09-28T22:06:03.695899Z","sensor_id":"sim_rf_01","modality":"rf","location":{"lat":35.27113249378987,"lon":-78.637572661906,"alt":145.0231056246477},"orientation":{"yaw":50.453194893355686,"pitch":6.3214900378850984,"roll":-2.847420563150563},"data":{"type":"frequency","value":905.567,"units":"MHz","confidence":1.0},"pid":"rf_signal_simulated_1","tags":["simulated","rf","test"],"note":"Simulated RF metadata packet","source_format":"simulated_json_v1"}
{"timestamp":"2025-09-28T22:06:04.696425Z","sensor_id":"sim_rf_01","modality":"rf","location":{"lat":35.27100805421513,"lon":-78.63785801131776,"alt":146.24452551382552},"orientation":{"yaw":273.2763901577587,"pitch":-1.361886150095323,"roll":-3.7334520263367263},"data":{"type":"frequency","value":921.938,"units":"MHz","confidence":0.82},"pid":"rf_signal_simulated_1","tags":["simulated","rf","test"],"note":"Simulated RF metadata packet","source_format":"simulated_json_v1"}
{"timestamp":"2025-09-28T22:06:05.696983Z","sensor_id":"sim_rf_01","modality":"rf","location":{"lat":35.27132280520332,"lon":-78.63788314586449,"alt":144.68814296731077},"orientation":{"yaw":333.5913355796936,"pitch":7.208507872156943,"roll":-2.0698305273193194},"data":{"type":"frequency","value":907.126,"units":"MHz","confidence":0.95},"pid":"rf_signal_simulated_1","tags":["simulated","rf","test"],"note":"Simulated RF metadata packet","source_format":"simulated_json_v1"}
{"timestamp":"2025-09-28T22:06:06.697554Z","sensor_id":"sim_rf_01","modality":"rf","location":{"lat":35.27141447969407,"lon":-78.63753960915196,"alt":145.44362061960058},"orientation":{"yaw":235.939021109242,"pitch":-6.868569607559212,"roll":-1.3374315137283777},"data":{"type":"frequency","value":927.277,"units":"MHz","confidence":0.68},"pid":"rf_signal_simulated_1","tags":["simulated","rf","test"],"note":"Simulated RF metadata packet","source_format":"simulated_json_v1"}
{"timestamp":"2025-09-28T22:06:07.698480Z","sensor_id":"sim_rf_01","modality":"rf","location":{"lat":35.27090945276734,"lon":-78.63722308051814,"alt":146.03723607747474},"orientation":{"yaw":343.96639478522957,"pitch":-4.97915290706376,"roll":4.979748109719409},"data":{"type":"frequency","value":916.301,"units":"MHz","confidence":0.57},"pid":"rf_signal_simulated_1","tags":["simulated","rf","test"],"note":"Simulated RF metadata packet","source_format":"simulated_json_v1"}
{"timestamp":"2025-09-28T22:06:08.698960Z","sensor_id":"sim_rf_01","modality":"rf","location":{"lat":35.27125169280721,"lon":-78.63782544233646,"alt":143.35163390399904},"orientation":{"yaw":167.56543270122168,"pitch":4.408360705697788,"roll":2.531931716907991},"data":{"type":"frequency","value":924.696,"units":"MHz","confidence":0.62},"pid":"rf_signal_simulated_1","tags":["simulated","rf","test"],"note":"Simulated RF metadata packet","source_format":"simulated_json_v1"}
{"timestamp":"2025-09-28T22:06:09.699435Z","sensor_id":"sim_rf_01","modality":"rf","location":{"lat":35.271222097877356,"lon":-78.63759557669795,"alt":146.69822067935203},"orientation":{"yaw":358.1905279332537,"pitch":-6.677461327298461,"roll":3.7424636209247026},"data":{"type":"frequency","value":911.975,"units":"MHz","confidence":0.97},"pid":"rf_signal_simulated_1","tags":["simulated","rf","test"],"note":"Simulated RF metadata packet","source_format":"simulated_json_v1"}
{"timestamp":"2025-09-28T22:06:10.699927Z","sensor_id":"sim_rf_01","modality":"rf","location":{"lat":35.27170973423439,"lon":-78.6373957669618,"alt":145.39458399887457},"orientation":{"yaw":356.52844991236105,"pitch":-8.188559866480444,"roll":-0.7098329689810701},"data":{"type":"frequency","value":921.366,"units":"MHz","confidence":0.95},"pid":"rf_signal_simulated_1","tags":["simulated","rf","test"],"note":"Simulated RF metadata packet","source_format":"simulated_json_v1"}
{"timestamp":"2025-09-28T22:06:11.700295Z","sensor_id":"sim_rf_01","modality":"rf","location":{"lat":35.27170894476502,"lon":-78.63742177450754,"alt":146.68548223099123},"orientation":{"yaw":223.39052296150007,"pitch":4.256831021368889,"roll":1.361728091231047},"data":{"type":"frequency","value":914.056,"units":"MHz","confidence":0.61},"pid":"rf_signal_simulated_1","tags":["simulated","rf","test"],"note":"Simulated RF metadata packet","source_format":"simulated_json_v1"}
{"timestamp":"2025-09-28T22:06:12.700702Z","sensor_id":"sim_rf_01","modality":"rf","location":{"lat":35.27113270484799,"lon":-78.63739007274957,"alt":145.80947148446728},"orientation":{"yaw":319.47993513218046,"pitch":8.419657760960387,"roll":3.9766600924384665},"data":{"type":"frequency","value":913.108,"units":"MHz","confidence":0.66},"pid":"rf_signal_simulated_1","tags":["simulated","rf","test"],"note":"Simulated RF metadata packet","source_format":"simulated_json_v1"}
{"timestamp":"2025-09-28T22:06:13.701492Z","sensor_id":"sim_rf_01","modality":"rf","location":{"lat":35.27129303122208,"lon":-78.63788773011265,"alt":146.8840378544592},"orientation":{"yaw":19.44059470790442,"pitch":-2.7904695403971562,"roll":-2.843870105147246},"data":{"type":"frequency","value":922.359,"units":"MHz","confidence":0.94},"pid":"rf_signal_simulated_1","tags":["simulated","rf","test"],"note":"Simulated RF metadata packet","source_format":"simulated_json_v1"}
{"timestamp":"2025-09-28T22:06:14.701892Z","sensor_id":"sim_rf_01","modality":"rf","location":{"lat":35.27158814441862,"lon":-78.63792964167979,"alt":144.77500614776446},"orientation":{"yaw":297.6345430925169,"pitch":9.589943505610396,"roll":4.9444836706442405},"data":{"type":"frequency","value":903.871,"units":"MHz","confidence":0.74},"pid":"rf_signal_simulated_1","tags":["simulated","rf","test"],"note":"Simulated RF metadata packet","source_format":"simulated_json_v1"}
{"timestamp":"2025-09-28T22:06:15.702174Z","sensor_id":"sim_rf_01","modality":"rf","location":{"lat":35.271224086050786,"lon":-78.6380941385677,"alt":143.02517077034702},"orientation":{"yaw":335.3544804179887,"pitch":-1.8701039749751995,"roll":-2.5684680469322254},"data":{"type":"frequency","value":911.408,"units":"MHz","confidence":0.59},"pid":"rf_signal_simulated_1","tags":["simulated","rf","test"],"note":"Simulated RF metadata packet","source_format":"simulated_json_v1"}
{"timestamp":"2025-09-28T22:06:16.702793Z","sensor_id":"sim_rf_01","modality":"rf","location":{"lat":35.271227444469716,"lon":-78.63809102453405,"alt":144.55755884739253},"orientation":{"yaw":85.50563223523717,"pitch":-9.507255268988864,"roll":-1.9101177711778083},"data":{"type":"frequency","value":911.612,"units":"MHz","confidence":0.64},"pid":"rf_signal_simulated_1","tags":["simulated","rf","test"],"note":"Simulated RF metadata packet","source_format":"simulated_json_v1"}
{"timestamp":"2025-09-28T22:06:17.703358Z","sensor_id":"sim_rf_01","modality":"rf","location":{"lat":35.27116561693612,"lon":-78.63710750720178,"alt":144.35923009671913},"orientation":{"yaw":281.9999822073415,"pitch":7.050210275329366,"roll":3.3705556035832025},"data":{"type":"frequency","value":915.58,"units":"MHz","confidence":0.86},"pid":"rf_signal_simulated_1","tags":["simulated","rf","test"],"note":"Simulated RF metadata packet","source_format":"simulated_json_v1"}
{"timestamp":"2025-09-28T22:06:18.704562Z","sensor_id":"sim_rf_01","modality":"rf","location":{"lat":35.27112017147487,"lon":-78.63766674467126,"alt":145.69861058352294},"orientation":{"yaw":301.1627795769244,"pitch":0.6241671594753644,"roll":0.5948747194773958},"data":{"type":"frequency","value":903.207,"units":"MHz","confidence":0.81},"pid":"rf_signal_simulated_1","tags":["simulated","rf","test"],"note":"Simulated RF metadata packet","source_format":"simulated_json_v1"}
{"timestamp":"2025-09-28T22:06:19.704864Z","sensor_id":"sim_rf_01","modality":"rf","location":{"lat":35.27092561911042,"lon":-78.63807969497498,"alt":144.5014950819795},"orientation":{"yaw":272.62492160150873,"pitch":5.061482030528406,"roll":-3.8759180551364847},"data":{"type":"frequency","value":919.487,"units":"MHz","confidence":0.83},"pid":"rf_signal_simulated_1","tags":["simulated","rf","test"],"note":"Simulated RF metadata packet","source_format":"simulated_json_v1"}
{"timestamp":"2025-09-28T22:06:20.706362Z","sensor_id":"sim_rf_01","modality":"rf","location":{"lat":35.271193191738725,"lon":-78.63802839205421,"alt":145.47496620449272},"orientation":{"yaw":336.309460560874,"pitch":-6.025201125313271,"roll":2.8203564450316856},"data":{"type":"frequency","value":926.579,"units":"MHz","confidence":0.54},"pid":"rf_signal_simulated_1","tags":["simulated","rf","test"],"note":"Simulated RF metadata packet","source_format":"simulated_json_v1"}
{"timestamp":"2025-09-28T22:06:21.706931Z","sensor_id":"sim_rf_01","modality":"rf","location":{"lat":35.271036590066544,"lon":-78.63737307078173,"alt":145.15840180251823},"orientation":{"yaw":238.61403123883042,"pitch":7.891135750868436,"roll":-0.6298689318988053},"data":{"type":"frequency","value":908.545,"units":"MHz","confidence":0.7},"pid":"rf_signal_simulated_1","tags":["simulated","rf","test"],"note":"Simulated RF metadata packet","source_format":"simulated_json_v1"}
{"timestamp":"2025-09-28T22:06:22.707338Z","sensor_id":"sim_rf_01","modality":"rf","location":{"lat":35.271700005873555,"lon":-78.63727165503578,"alt":145.91688652046818},"orientation":{"yaw":17.324842549711505,"pitch":2.588555973088109,"roll":1.6408725557731891},"data":{"type":"frequency","value":917.089,"units":"MHz","confidence":0.61},"pid":"rf_signal_simulated_1","tags":["simulated","rf","test"],"note":"Simulated RF metadata packet","source_format":"simulated_json_v1"}
{"timestamp":"2025-09-28T22:06:23.708239Z","sensor_id":"sim_rf_01","modality":"rf","location":{"lat":35.27160969689796,"lon":-78.63722025030802,"alt":143.53617045459967},"orientation":{"yaw":197.5905084791653,"pitch":0.4394128939897044,"roll":-4.450048405135295},"data":{"type":"frequency","value":908.007,"units":"MHz","confidence":0.99},"pid":"rf_signal_simulated_1","tags":["simulated","rf","test"],"note":"Simulated RF metadata packet","source_format":"simulated_json_v1"}
{"timestamp":"2025-09-28T22:06:24.708556Z","sensor_id":"sim_rf_01","modality":"rf","location":{"lat":35.27120337708147,"lon":-78.6380866028105,"alt":146.86536007860747},"orientation":{"yaw":256.60255081178724,"pitch":-9.296920166369668,"roll":0.83758295600183},"data":{"type":"frequency","value":904.372,"units":"MHz","confidence":1.0},"pid":"rf_signal_simulated_1","tags":["simulated","rf","test"],"note":"Simulated RF metadata packet","source_format":"simulated_json_v1"}
{"timestamp":"2025-09-28T22:06:25.708894Z","sensor_id":"sim_rf_01","modality":"rf","location":{"lat":35.27118627254561,"lon":-78.63793033887966,"alt":144.52843250585153},"orientation":{"yaw":116.5338070195406,"pitch":7.6279349948120405,"roll":-3.5817287471498647},"data":{"type":"frequency","value":910.314,"units":"MHz","confidence":0.82},"pid":"rf_signal_simulated_1","tags":["simulated","rf","test"],"note":"Simulated RF metadata packet","source_format":"simulated_json_v1"}
{"timestamp":"2025-09-28T22:06:26.709409Z","sensor_id":"sim_rf_01","modality":"rf","location":{"lat":35.27103410782108,"lon":-78.63729767195093,"alt":143.15408921805704},"orientation":{"yaw":129.60251126436094,"pitch":4.950146218921249,"roll":-0.5498344716419599},"data":{"type":"frequency","value":916.471,"units":"MHz","confidence":0.64},"pid":"rf_signal_simulated_1","tags":["simulated","rf","test"],"note":"Simulated RF metadata packet","source_format":"simulated_json_v1"}
{"timestamp":"2025-09-28T22:06:27.710688Z","sensor_id":"sim_rf_01","modality":"rf","location":{"lat":35.27134487457259,"lon":-78.63769640271154,"alt":144.11701033938422},"orientation":{"yaw":135.24641270286705,"pitch":5.4934013701039035,"roll":2.391149485771696},"data":{"type":"frequency","value":923.49,"units":"MHz","confidence":0.89},"pid":"rf_signal_simulated_1","tags":["simulated","rf","test"],"note":"Simulated RF metadata packet","source_format":"simulated_json_v1"}
{"timestamp":"2025-09-28T22:06:28.712751Z","sensor_id":"sim_rf_01","modality":"rf","location":{"lat":35.27181745712649,"lon":-78.63764516116426,"alt":145.3504730956215},"orientation":{"yaw":240.64656025188143,"pitch":1.6415479327832685,"roll":-1.73776428227719},"data":{"type":"frequency","value":908.934,"units":"MHz","confidence":0.76},"pid":"rf_signal_simulated_1","tags":["simulated","rf","test"],"note":"Simulated RF metadata packet","source_format":"simulated_json_v1"}
{"timestamp":"2025-09-28T22:06:29.713483Z","sensor_id":"sim_rf_01","modality":"rf","location":{"lat":35.271266639647415,"lon":-78.63800674777326,"alt":145.91153746482343},"orientation":{"yaw":222.64499274743744,"pitch":-6.847669850512917,"roll":-1.8563188152978105},"data":{"type":"frequency","value":911.775,"units":"MHz","confidence":0.75},"pid":"rf_signal_simulated_1","tags":["simulated","rf","test"],"note":"Simulated RF metadata packet","source_format":"simulated_json_v1"}
{"timestamp":"2025-09-28T22:06:30.714164Z","sensor_id":"sim_rf_01","modality":"rf","location":{"lat":35.27139874196203,"lon":-78.6377573852422,"alt":143.396863942117},"orientation":{"yaw":246.33033102537703,"pitch":-4.124055350568945,"roll":2.151698205751562},"data":{"type":"frequency","value":906.787,"units":"MHz","confidence":0.53},"pid":"rf_signal_simulated_1","tags":["simulated","rf","test"],"note":"Simulated RF metadata packet","source_format":"simulated_json_v1"}
{"timestamp":"2025-09-28T22:06:31.714813Z","sensor_id":"sim_rf_01","modality":"rf","location":{"lat":35.27100476539944,"lon":-78.63781668073331,"alt":145.4855604683469},"orientation":{"yaw":47.99506348664961,"pitch":2.1095536229152874,"roll":3.4704781126837965},"data":{"type":"frequency","value":903.709,"units":"MHz","confidence":0.74},"pid":"rf_signal_simulated_1","tags":["simulated","rf","test"],"note":"Simulated RF metadata packet","source_format":"simulated_json_v1"}
{"timestamp":"2025-09-28T22:06:32.715096Z","sensor_id":"sim_rf_01","modality":"rf","location":{"lat":35.27165777176201,"lon":-78.63735807862204,"alt":146.00897647527384},"orientation":{"yaw":122.81029016889335,"pitch":-5.485940287312423,"roll":-2.1908746855576924},"data":{"type":"frequency","value":919.934,"units":"MHz","confidence":0.61},"pid":"rf_signal_simulated_1","tags":["simulated","rf","test"],"note":"Simulated RF metadata packet","source_format":"simulated_json_v1"}
{"timestamp":"2025-09-28T22:06:33.716057Z","sensor_id":"sim_rf_01","modality":"rf","location":{"lat":35.27112305885747,"lon":-78.63787605848336,"alt":145.04655756446485},"orientation":{"yaw":48.343480695226624,"pitch":5.464709332843228,"roll":4.261488787779605},"data":{"type":"frequency","value":909.123,"units":"MHz","confidence":0.69},"pid":"rf_signal_simulated_1","tags":["simulated","rf","test"],"note":"Simulated RF metadata packet","source_format":"simulated_json_v1"}
{"timestamp":"2025-09-28T22:06:34.716847Z","sensor_id":"sim_rf_01","modality":"rf","location":{"lat":35.27155850391221,"lon":-78.63735940781888,"alt":145.6246488120318},"orientation":{"yaw":70.4273039370534,"pitch":4.259009594954454,"roll":1.7282184639984681},"data":{"type":"frequency","value":922.983,"units":"MHz","confidence":0.95},"pid":"rf_signal_simulated_1","tags":["simulated","rf","test"],"note":"Simulated RF metadata packet","source_format":"simulated_json_v1"}
{"timestamp":"2025-09-28T22:06:35.718193Z","sensor_id":"sim_rf_01","modality":"rf","location":{"lat":35.27116113277718,"lon":-78.63711709886317,"alt":143.19360023353988},"orientation":{"yaw":182.83558056473223,"pitch":2.1466986008080458,"roll":3.755768942979671},"data":{"type":"frequency","value":920.436,"units":"MHz","confidence":0.77},"pid":"rf_signal_simulated_1","tags":["simulated","rf","test"],"note":"Simulated RF metadata packet","source_format":"simulated_json_v1"}
{"timestamp":"2025-09-28T22:06:36.718999Z","sensor_id":"sim_rf_01","modality":"rf","location":{"lat":35.271153429262874,"lon":-78.63797218081093,"alt":144.13776863754606},"orientation":{"yaw":53.479607761878775,"pitch":9.623626707542009,"roll":-1.6387462394264296},"data":{"type":"frequency","value":920.155,"units":"MHz","confidence":0.83},"pid":"rf_signal_simulated_1","tags":["simulated","rf","test"],"note":"Simulated RF metadata packet","source_format":"simulated_json_v1"}
{"timestamp":"2025-09-28T22:06:37.719498Z","sensor_id":"sim_rf_01","modality":"rf","location":{"lat":35.2713971270716,"lon":-78.63710874669648,"alt":146.7259935007603},"orientation":{"yaw":282.9496096117183,"pitch":6.660320299425905,"roll":-0.5294325962705297},"data":{"type":"frequency","value":905.39,"units":"MHz","confidence":0.69},"pid":"rf_signal_simulated_1","tags":["simulated","rf","test"],"note":"Simulated RF metadata packet","source_format":"simulated_json_v1"}
{"timestamp":"2025-09-28T22:06:38.720373Z","sensor_id":"sim_rf_01","modality":"rf","location":{"lat":35.27100554993757,"lon":-78.63766720768145,"alt":143.0580156581085},"orientation":{"yaw":269.0092828310791,"pitch":4.366721483201498,"roll":-0.2689623286730649},"data":{"type":"frequency","value":909.407,"units":"MHz","confidence":0.5},"pid":"rf_signal_simulated_1","tags":["simulated","rf","test"],"note":"Simulated RF metadata packet","source_format":"simulated_json_v1"}
{"timestamp":"2025-09-28T22:06:39.721048Z","sensor_id":"sim_rf_01","modality":"rf","location":{"lat":35.271213038432165,"lon":-78.63779163135949,"alt":143.54902604161893},"orientation":{"yaw":336.9049799844288,"pitch":3.930490335586496,"roll":-4.523896579090985},"data":{"type":"frequency","value":926.831,"units":"MHz","confidence":1.0},"pid":"rf_signal_simulated_1","tags":["simulated","rf","test"],"note":"Simulated RF metadata packet","source_format":"simulated_json_v1"}
{"timestamp":"2025-09-28T22:06:40.721924Z","sensor_id":"sim_rf_01","modality":"rf","location":{"lat":35.2718394242191,"lon":-78.63779337150967,"alt":143.8036082879752},"orientation":{"yaw":94.28593002322236,"pitch":8.570255989886437,"roll":4.229931065637585},"data":{"type":"frequency","value":927.346,"units":"MHz","confidence":0.74},"pid":"rf_signal_simulated_1","tags":["simulated","rf","test"],"note":"Simulated RF metadata packet","source_format":"simulated_json_v1"}
{"timestamp":"2025-09-28T22:06:41.722220Z","sensor_id":"sim_rf_01","modality":"rf","location":{"lat":35.27108506490919,"lon":-78.63807486240894,"alt":146.5415760958488},"orientation":{"yaw":124.12508163087716,"pitch":-2.878368144757504,"roll":-2.1347509058268974},"data":{"type":"frequency","value":921.019,"units":"MHz","confidence":0.74},"pid":"rf_signal_simulated_1","tags":["simulated","rf","test"],"note":"Simulated RF metadata packet","source_format":"simulated_json_v1"}
{"timestamp":"2025-09-28T22:06:42.723913Z","sensor_id":"sim_rf_01","modality":"rf","location":{"lat":35.27133327469368,"lon":-78.63767745422405,"alt":145.53071773611896},"orientation":{"yaw":208.41860719123682,"pitch":6.847512998858949,"roll":0.8345096385067858},"data":{"type":"frequency","value":917.524,"units":"MHz","confidence":0.96},"pid":"rf_signal_simulated_1","tags":["simulated","rf","test"],"note":"Simulated RF metadata packet","source_format":"simulated_json_v1"}
{"timestamp":"2025-09-28T22:06:43.724482Z","sensor_id":"sim_rf_01","modality":"rf","location":{"lat":35.27132543784309,"lon":-78.6375403202112,"alt":145.24273504281174},"orientation":{"yaw":68.87413180096735,"pitch":-1.7580200945042819,"roll":-0.2921271225735209},"data":{"type":"frequency","value":924.516,"units":"MHz","confidence":0.94},"pid":"rf_signal_simulated_1","tags":["simulated","rf","test"],"note":"Simulated RF metadata packet","source_format":"simulated_json_v1"}
{"timestamp":"2025-09-28T22:06:44.724855Z","sensor_id":"sim_rf_01","modality":"rf","location":{"lat":35.271263868503745,"lon":-78.63746365749901,"alt":145.47961741643968},"orientation":{"yaw":106.2713224940487,"pitch":-6.829230482431788,"roll":-4.619303594610592},"data":{"type":"frequency","value":904.398,"units":"MHz","confidence":0.96},"pid":"rf_signal_simulated_1","tags":["simulated","rf","test"],"note":"Simulated RF metadata packet","source_format":"simulated_json_v1"}
{"timestamp":"2025-09-28T22:06:45.725862Z","sensor_id":"sim_rf_01","modality":"rf","location":{"lat":35.271290066726564,"lon":-78.63793238700437,"alt":146.4161945488695},"orientation":{"yaw":213.71570380641103,"pitch":-3.9273870019907786,"roll":-3.783062934238769},"data":{"type":"frequency","value":923.48,"units":"MHz","confidence":0.92},"pid":"rf_signal_simulated_1","tags":["simulated","rf","test"],"note":"Simulated RF metadata packet","source_format":"simulated_json_v1"}
{"timestamp":"2025-09-28T22:06:46.726611Z","sensor_id":"sim_rf_01","modality":"rf","location":{"lat":35.27126281691894,"lon":-78.63789776021453,"alt":145.3799458333569},"orientation":{"yaw":247.0782068092483,"pitch":1.9143249858329465,"roll":-4.61687946366699},"data":{"type":"frequency","value":909.267,"units":"MHz","confidence":0.82},"pid":"rf_signal_simulated_1","tags":["simulated","rf","test"],"note":"Simulated RF metadata packet","source_format":"simulated_json_v1"}
{"timestamp":"2025-09-28T22:06:47.726880Z","sensor_id":"sim_rf_01","modality":"rf","location":{"lat":35.27157952209564,"lon":-78.637389886729,"alt":145.09512596725347},"orientation":{"yaw":10.303550456485784,"pitch":8.495597332466943,"roll":1.2789008241410311},"data":{"type":"frequency","value":923.184,"units":"MHz","confidence":0.92},"pid":"rf_signal_simulated_1","tags":["simulated","rf","test"],"note":"Simulated RF metadata packet","source_format":"simulated_json_v1"}
{"timestamp":"2025-09-28T22:06:48.727222Z","sensor_id":"sim_rf_01","modality":"rf","location":{"lat":35.27186829503158,"lon":-78.63748392497396,"alt":146.54494290199526},"orientation":{"yaw":179.403624491188,"pitch":5.53428783618266,"roll":2.716312245969416},"data":{"type":"frequency","value":922.959,"units":"MHz","confidence":0.99},"pid":"rf_signal_simulated_1","tags":["simulated","rf","test"],"note":"Simulated RF metadata packet","source_format":"simulated_json_v1"}
{"timestamp":"2025-09-28T22:06:49.728046Z","sensor_id":"sim_rf_01","modality":"rf","location":{"lat":35.27152069481807,"lon":-78.6374452586017,"alt":144.13369010077994},"orientation":{"yaw":235.49128834166146,"pitch":-0.0461798604573751,"roll":-0.14465475444044884},"data":{"type":"frequency","value":912.068,"units":"MHz","confidence":0.77},"pid":"rf_signal_simulated_1","tags":["simulated","rf","test"],"note":"Simulated RF metadata packet","source_format":"simulated_json_v1"}
{"timestamp":"2025-09-28T22:06:50.728651Z","sensor_id":"sim_rf_01","modality":"rf","location":{"lat":35.27168550639569,"lon":-78.63776690878595,"alt":146.9733372073146},"orientation":{"yaw":299.5382003401605,"pitch":-0.39556493897713274,"roll":4.922309423117774},"data":{"type":"frequency","value":902.896,"units":"MHz","confidence":0.68},"pid":"rf_signal_simulated_1","tags":["simulated","rf","test"],"note":"Simulated RF metadata packet","source_format":"simulated_json_v1"}
{"timestamp":"2025-09-28T22:06:51.729435Z","sensor_id":"sim_rf_01","modality":"rf","location":{"lat":35.2713996374595,"lon":-78.63729419627138,"alt":144.95688672795538},"orientation":{"yaw":117.73983279084891,"pitch":8.764395306154071,"roll":4.459245564115175},"data":{"type":"frequency","value":926.483,"units":"MHz","confidence":0.54},"pid":"rf_signal_simulated_1","tags":["simulated","rf","test"],"note":"Simulated RF metadata packet","source_format":"simulated_json_v1"}
{"timestamp":"2025-09-28T22:06:52.730016Z","sensor_id":"sim_rf_01","modality":"rf","location":{"lat":35.27131543392604,"lon":-78.63762471996377,"alt":146.1375861234123},"orientation":{"yaw":300.31174628216564,"pitch":-9.607735021692104,"roll":0.8067361758680303},"data":{"type":"frequency","value":925.245,"units":"MHz","confidence":0.88},"pid":"rf_signal_simulated_1","tags":["simulated","rf","test"],"note":"Simulated RF metadata packet","source_format":"simulated_json_v1"}
{"timestamp":"2025-09-28T22:06:53.730364Z","sensor_id":"sim_rf_01","modality":"rf","location":{"lat":35.271779333918715,"lon":-78.63760850156125,"alt":145.98372768959007},"orientation":{"yaw":62.25214148967693,"pitch":9.20055981765848,"roll":-0.3186360636350374},"data":{"type":"frequency","value":919.095,"units":"MHz","confidence":0.72},"pid":"rf_signal_simulated_1","tags":["simulated","rf","test"],"note":"Simulated RF metadata packet","source_format":"simulated_json_v1"}
{"timestamp":"2025-09-28T22:06:54.731038Z","sensor_id":"sim_rf_01","modality":"rf","location":{"lat":35.271159530656696,"lon":-78.63778389682919,"alt":143.87029578478882},"orientation":{"yaw":32.38637935558688,"pitch":-2.246641434295194,"roll":0.33066630461018853},"data":{"type":"frequency","value":904.662,"units":"MHz","confidence":0.98},"pid":"rf_signal_simulated_1","tags":["simulated","rf","test"],"note":"Simulated RF metadata packet","source_format":"simulated_json_v1"}
{"timestamp":"2025-09-28T22:06:55.731538Z","sensor_id":"sim_rf_01","modality":"rf","location":{"lat":35.271246667925816,"lon":-78.63758171799198,"alt":144.60651487658487},"orientation":{"yaw":126.7122083272852,"pitch":-3.11288108159693,"roll":-1.7105563621152262},"data":{"type":"frequency","value":913.864,"units":"MHz","confidence":0.74},"pid":"rf_signal_simulated_1","tags":["simulated","rf","test"],"note":"Simulated RF metadata packet","source_format":"simulated_json_v1"}
{"timestamp":"2025-09-28T22:06:56.732233Z","sensor_id":"sim_rf_01","modality":"rf","location":{"lat":35.27117701723398,"lon":-78.63766840646508,"alt":146.12852343272843},"orientation":{"yaw":238.6059262722033,"pitch":-9.671129803832608,"roll":1.2114537182601728},"data":{"type":"frequency","value":906.552,"units":"MHz","confidence":0.65},"pid":"rf_signal_simulated_1","tags":["simulated","rf","test"],"note":"Simulated RF metadata packet","source_format":"simulated_json_v1"}
{"timestamp":"2025-09-28T22:06:57.732725Z","sensor_id":"sim_rf_01","modality":"rf","location":{"lat":35.27115599612548,"lon":-78.63740599927127,"alt":145.2155756281372},"orientation":{"yaw":335.0049593816546,"pitch":-6.740914509624076,"roll":-0.7144651909775623},"data":{"type":"frequency","value":915.029,"units":"MHz","confidence":0.76},"pid":"rf_signal_simulated_1","tags":["simulated","rf","test"],"note":"Simulated RF metadata packet","source_format":"simulated_json_v1"}
{"timestamp":"2025-09-28T22:06:58.733391Z","sensor_id":"sim_rf_01","modality":"rf","location":{"lat":35.27138482625202,"lon":-78.63798421553497,"alt":146.99984448332964},"orientation":{"yaw":267.7809625776163,"pitch":-0.10870651098657191,"roll":4.59192006071315},"data":{"type":"frequency","value":918.064,"units":"MHz","confidence":0.54},"pid":"rf_signal_simulated_1","tags":["simulated","rf","test"],"note":"Simulated RF metadata packet","source_format":"simulated_json_v1"}
